{
    "type": "FeatureCollection",
    "features": [
        {
            "type": "Feature",
            "properties": {
                "name": "彰作关 Zhangzuoguan"
            },
            "geometry": {
                "type": "Point",
                "coordinates": [
                    117.3441982269287,
                    40.22738335523681
                ]
            }
        },
        {
            "type": "Feature",
            "properties": {
                "name": "将军关 Jiangjunguan"
            },
            "geometry": {
                "type": "Point",
                "coordinates": [
                    117.31244087219237,
                    40.27598964655471
                ]
            }
        },
        {
            "type": "Feature",
            "properties": {
                "name": "黑水湾口 Heishuiwankou"
            },
            "geometry": {
                "type": "Point",
                "coordinates": [
                    117.28366613388062,
                    40.24374765881399
                ]
            }
        },
        {
            "type": "Feature",
            "properties": {
                "name": "黄松峪关 Huangsongyuguan"
            },
            "geometry": {
                "type": "Point",
                "coordinates": [
                    117.25195169448853,
                    40.24017700697893
                ]
            }
        },
        {
            "type": "Feature",
            "properties": {
                "name": "北寨口 Beizhaikou"
            },
            "geometry": {
                "type": "Point",
                "coordinates": [
                    117.19671964645386,
                    40.248284408045215
                ]
            }
        },
        {
            "type": "Feature",
            "properties": {
                "name": "熊儿河口 Xiongerhekou"
            },
            "geometry": {
                "type": "Point",
                "coordinates": [
                    117.1688461303711,
                    40.299199599903325
                ]
            }
        },
        {
            "type": "Feature",
            "properties": {
                "name": "南水峪关 Nanshuiyuguan"
            },
            "geometry": {
                "type": "Point",
                "coordinates": [
                    117.21742630004883,
                    40.32351403031129
                ]
            }
        },
        {
            "type": "Feature",
            "properties": {
                "name": "北水峪关 Beishuiyuguan"
            },
            "geometry": {
                "type": "Point",
                "coordinates": [
                    117.208092212677,
                    40.36423661956072
                ]
            }
        },
        {
            "type": "Feature",
            "properties": {
                "name": "黄门子口 Huangmenzikou"
            },
            "geometry": {
                "type": "Point",
                "coordinates": [
                    117.22291946411133,
                    40.38400028710144
                ]
            }
        },
        {
            "type": "Feature",
            "properties": {
                "name": "墙子路关 Qiangziluguan"
            },
            "geometry": {
                "type": "Point",
                "coordinates": [
                    117.22901344299315,
                    40.42035747630869
                ]
            }
        },
        {
            "type": "Feature",
            "properties": {
                "name": "磨刀峪口 Modaoyukou"
            },
            "geometry": {
                "type": "Point",
                "coordinates": [
                    117.24572896957396,
                    40.4298969636954
                ]
            }
        },
        {
            "type": "Feature",
            "properties": {
                "name": "泉水河口 Quanshuihekou"
            },
            "geometry": {
                "type": "Point",
                "coordinates": [
                    117.25285291671753,
                    40.44123151309826
                ]
            }
        },
        {
            "type": "Feature",
            "properties": {
                "name": "石灰峪口 Shihuiyukou"
            },
            "geometry": {
                "type": "Point",
                "coordinates": [
                    117.23036527633667,
                    40.46621303493047
                ]
            }
        },
        {
            "type": "Feature",
            "properties": {
                "name": "小黄岩口 Xiaohuangyankou"
            },
            "geometry": {
                "type": "Point",
                "coordinates": [
                    117.20577478408812,
                    40.50560943602521
                ]
            }
        },
        {
            "type": "Feature",
            "properties": {
                "name": "大黄岩口 Dahuangyankou"
            },
            "geometry": {
                "type": "Point",
                "coordinates": [
                    117.24122285842894,
                    40.537612175160646
                ]
            }
        },
        {
            "type": "Feature",
            "properties": {
                "name": "大虫峪口 Dachongyukou"
            },
            "geometry": {
                "type": "Point",
                "coordinates": [
                    117.34252452850342,
                    40.605253659107085
                ]
            }
        },
        {
            "type": "Feature",
            "properties": {
                "name": "镰钯峪口 Lianpangyukou"
            },
            "geometry": {
                "type": "Point",
                "coordinates": [
                    117.42359161376952,
                    40.62607020467508
                ]
            }
        },
        {
            "type": "Feature",
            "properties": {
                "name": "大黑关 Daheiguan"
            },
            "geometry": {
                "type": "Point",
                "coordinates": [
                    117.49714851379395,
                    40.64704307144758
                ]
            }
        },
        {
            "type": "Feature",
            "properties": {
                "name": "水谷寨口 Shuiguzhaikou"
            },
            "geometry": {
                "type": "Point",
                "coordinates": [
                    117.49423027038576,
                    40.66739087336782
                ]
            }
        },
        {
            "type": "Feature",
            "properties": {
                "name": "大角峪口 Dajiaoyukou"
            },
            "geometry": {
                "type": "Point",
                "coordinates": [
                    117.44646549224854,
                    40.6750725891548
                ]
            }
        },
        {
            "type": "Feature",
            "properties": {
                "name": "倒班岭关 Daobanlingguan"
            },
            "geometry": {
                "type": "Point",
                "coordinates": [
                    117.43213176727295,
                    40.67995457563685
                ]
            }
        },
        {
            "type": "Feature",
            "properties": {
                "name": "师姑峪口 Shiguyukou"
            },
            "geometry": {
                "type": "Point",
                "coordinates": [
                    117.4174976348877,
                    40.68350192818986
                ]
            }
        },
        {
            "type": "Feature",
            "properties": {
                "name": "扒头崖口 Patouyakou"
            },
            "geometry": {
                "type": "Point",
                "coordinates": [
                    117.40294933319092,
                    40.6853568905881
                ]
            }
        },
        {
            "type": "Feature",
            "properties": {
                "name": "齐头崖口 Qitouyakou"
            },
            "geometry": {
                "type": "Point",
                "coordinates": [
                    117.39301443099974,
                    40.6823303463911
                ]
            }
        },
        {
            "type": "Feature",
            "properties": {
                "name": "白岭关 Bailingguan"
            },
            "geometry": {
                "type": "Point",
                "coordinates": [
                    117.3432970046997,
                    40.66797679811877
                ]
            }
        },
        {
            "type": "Feature",
            "properties": {
                "name": "望京楼 Wangjinglou"
            },
            "geometry": {
                "type": "Point",
                "coordinates": [
                    117.31032192707063,
                    40.65746192135486
                ]
            }
        },
        {
            "type": "Feature",
            "properties": {
                "name": "司马台 Simatai"
            },
            "geometry": {
                "type": "Point",
                "coordinates": [
                    117.27473974227904,
                    40.661759222981814
                ]
            }
        },
        {
            "type": "Feature",
            "properties": {
                "name": "沙岭口 Shalingkou"
            },
            "geometry": {
                "type": "Point",
                "coordinates": [
                    117.25130796432495,
                    40.677904184859585
                ]
            }
        },
        {
            "type": "Feature",
            "properties": {
                "name": "砖垛口 Zhuanduokou"
            },
            "geometry": {
                "type": "Point",
                "coordinates": [
                    117.23209261894226,
                    40.676594179957114
                ]
            }
        },
        {
            "type": "Feature",
            "properties": {
                "name": "古北口 Gubeikou"
            },
            "geometry": {
                "type": "Point",
                "coordinates": [
                    117.15755939483643,
                    40.695444378653626
                ]
            }
        },
        {
            "type": "Feature",
            "properties": {
                "name": "古北口城 Gubeikoucheng"
            },
            "geometry": {
                "type": "Point",
                "coordinates": [
                    117.1622371673584,
                    40.68350192818986
                ]
            }
        },
        {
            "type": "Feature",
            "properties": {
                "name": "潮河关 Chaoheguan"
            },
            "geometry": {
                "type": "Point",
                "coordinates": [
                    117.10653305053711,
                    40.68363210267408
                ]
            }
        },
        {
            "type": "Feature",
            "properties": {
                "name": "掉马河口 Diaomahekou"
            },
            "geometry": {
                "type": "Point",
                "coordinates": [
                    117.05095767974855,
                    40.680442754621694
                ]
            }
        },
        {
            "type": "Feature",
            "properties": {
                "name": "西台子口 Xitaizikou"
            },
            "geometry": {
                "type": "Point",
                "coordinates": [
                    117.00795650482176,
                    40.657852596578444
                ]
            }
        },
        {
            "type": "Feature",
            "properties": {
                "name": "东驼谷关 Dongtuoguguan"
            },
            "geometry": {
                "type": "Point",
                "coordinates": [
                    116.99117660522461,
                    40.676081562335845
                ]
            }
        },
        {
            "type": "Feature",
            "properties": {
                "name": "西驼谷关 Xituoguguan"
            },
            "geometry": {
                "type": "Point",
                "coordinates": [
                    116.95950508117677,
                    40.69385000634655
                ]
            }
        },
        {
            "type": "Feature",
            "properties": {
                "name": "响水谷关"
            },
            "geometry": {
                "type": "Point",
                "coordinates": [
                    116.94881916046141,
                    40.69010796230609
                ]
            }
        },
        {
            "type": "Feature",
            "properties": {
                "name": "洪桐峪 Hongtongyu"
            },
            "geometry": {
                "type": "Point",
                "coordinates": [
                    116.91912174224854,
                    40.71467145556915
                ]
            }
        },
        {
            "type": "Feature",
            "properties": {
                "name": "白马关 Baimaguan"
            },
            "geometry": {
                "type": "Point",
                "coordinates": [
                    116.91195487976073,
                    40.71857475261651
                ]
            }
        },
        {
            "type": "Feature",
            "properties": {
                "name": "孟思郎峪 Mengsilangyu"
            },
            "geometry": {
                "type": "Point",
                "coordinates": [
                    116.88637733459471,
                    40.67888056928554
                ]
            }
        },
        {
            "type": "Feature",
            "properties": {
                "name": "西白莲峪 Xibailianyu"
            },
            "geometry": {
                "type": "Point",
                "coordinates": [
                    116.87796592712404,
                    40.658503716866974
                ]
            }
        },
        {
            "type": "Feature",
            "properties": {
                "name": "冯家峪 Fengjiayu"
            },
            "geometry": {
                "type": "Point",
                "coordinates": [
                    116.85479164123534,
                    40.64548010364599
                ]
            }
        },
        {
            "type": "Feature",
            "properties": {
                "name": "鹿皮关 Lupiguan"
            },
            "geometry": {
                "type": "Point",
                "coordinates": [
                    116.79754257202147,
                    40.561873177243555
                ]
            }
        },
        {
            "type": "Feature",
            "properties": {
                "name": "北石城口 Beishichengkou"
            },
            "geometry": {
                "type": "Point",
                "coordinates": [
                    116.81093215942383,
                    40.54804809196476
                ]
            }
        },
        {
            "type": "Feature",
            "properties": {
                "name": "水堡子关 Shuibaoziguan"
            },
            "geometry": {
                "type": "Point",
                "coordinates": [
                    116.80599689483643,
                    40.54315645840702
                ]
            }
        },
        {
            "type": "Feature",
            "properties": {
                "name": "白道峪 Baidaoyu"
            },
            "geometry": {
                "type": "Point",
                "coordinates": [
                    116.75951957702635,
                    40.48579988617661
                ]
            }
        },
        {
            "type": "Feature",
            "properties": {
                "name": "牛盆峪 Niupenyu"
            },
            "geometry": {
                "type": "Point",
                "coordinates": [
                    116.73334121704102,
                    40.471175577655
                ]
            }
        },
        {
            "type": "Feature",
            "properties": {
                "name": "小水峪关 Xiaoshuiyuguan"
            },
            "geometry": {
                "type": "Point",
                "coordinates": [
                    116.71892166137695,
                    40.464449938054564
                ]
            }
        },
        {
            "type": "Feature",
            "properties": {
                "name": "大水峪关 Dashuiyu"
            },
            "geometry": {
                "type": "Point",
                "coordinates": [
                    116.68785095214842,
                    40.45168242995823
                ]
            }
        },
        {
            "type": "Feature",
            "properties": {
                "name": "河防口 Hefangkou"
            },
            "geometry": {
                "type": "Point",
                "coordinates": [
                    116.66570663452148,
                    40.43897782117671
                ]
            }
        },
        {
            "type": "Feature",
            "properties": {
                "name": "官地河口 Guandihekou"
            },
            "geometry": {
                "type": "Point",
                "coordinates": [
                    116.62909984588623,
                    40.4222197427904
                ]
            }
        },
        {
            "type": "Feature",
            "properties": {
                "name": "莲花池关 Lianhuachiguan"
            },
            "geometry": {
                "type": "Point",
                "coordinates": [
                    116.57936096191408,
                    40.437867278530454
                ]
            }
        },
        {
            "type": "Feature",
            "properties": {
                "name": "慕田峪 Mutianyu"
            },
            "geometry": {
                "type": "Point",
                "coordinates": [
                    116.56440496444701,
                    40.43088513804528
                ]
            }
        },
        {
            "type": "Feature",
            "properties": {
                "name": "正北楼 Zhengbeikou"
            },
            "geometry": {
                "type": "Point",
                "coordinates": [
                    116.53626054525375,
                    40.45492555790358
                ]
            }
        },
        {
            "type": "Feature",
            "properties": {
                "name": "北京结 Beijingjie"
            },
            "geometry": {
                "type": "Point",
                "coordinates": [
                    116.49451464414595,
                    40.46316227671911
                ]
            }
        },
        {
            "type": "Feature",
            "properties": {
                "name": "磨石口 Moshikou"
            },
            "geometry": {
                "type": "Point",
                "coordinates": [
                    116.4531362056732,
                    40.459862404327474
                ]
            }
        },
        {
            "type": "Feature",
            "properties": {
                "name": "驴鞍岭 Lu'anling"
            },
            "geometry": {
                "type": "Point",
                "coordinates": [
                    116.44208550453186,
                    40.458197101060826
                ]
            }
        },
        {
            "type": "Feature",
            "properties": {
                "name": "大榛峪 Dazhenyu"
            },
            "geometry": {
                "type": "Point",
                "coordinates": [
                    116.43100261688232,
                    40.45465411266823
                ]
            }
        },
        {
            "type": "Feature",
            "properties": {
                "name": "铁矿峪 Tiekuangyu"
            },
            "geometry": {
                "type": "Point",
                "coordinates": [
                    116.40694856643677,
                    40.45187836912884
                ]
            }
        },
        {
            "type": "Feature",
            "properties": {
                "name": "小长峪 Xiaochangyu"
            },
            "geometry": {
                "type": "Point",
                "coordinates": [
                    116.35255336761475,
                    40.417727345480294
                ]
            }
        },
        {
            "type": "Feature",
            "properties": {
                "name": "二道关 Erdaoguan"
            },
            "geometry": {
                "type": "Point",
                "coordinates": [
                    116.32770538330078,
                    40.428622932361975
                ]
            }
        },
        {
            "type": "Feature",
            "properties": {
                "name": "黄花城 Huanghuacheng"
            },
            "geometry": {
                "type": "Point",
                "coordinates": [
                    116.33907794952391,
                    40.416175356693785
                ]
            }
        },
        {
            "type": "Feature",
            "properties": {
                "name": "撞道口 Zhuangdaokou"
            },
            "geometry": {
                "type": "Point",
                "coordinates": [
                    116.32663249969481,
                    40.41379012519376
                ]
            }
        },
        {
            "type": "Feature",
            "properties": {
                "name": "鹞子峪 Yaoziyu"
            },
            "geometry": {
                "type": "Point",
                "coordinates": [
                    116.31779193878174,
                    40.425780775492626
                ]
            }
        },
        {
            "type": "Feature",
            "properties": {
                "name": "西水峪 Xishuiyu"
            },
            "geometry": {
                "type": "Point",
                "coordinates": [
                    116.3073205947876,
                    40.41078395958836
                ]
            }
        },
        {
            "type": "Feature",
            "properties": {
                "name": "九眼楼 Jiuyanlou"
            },
            "geometry": {
                "type": "Point",
                "coordinates": [
                    116.50242984294891,
                    40.4819441765746
                ]
            }
        },
        {
            "type": "Feature",
            "properties": {
                "name": "岔石口 Chashikou"
            },
            "geometry": {
                "type": "Point",
                "coordinates": [
                    116.42297744750977,
                    40.494938461245376
                ]
            }
        },
        {
            "type": "Feature",
            "properties": {
                "name": "海子口 Haizikou"
            },
            "geometry": {
                "type": "Point",
                "coordinates": [
                    116.39293670654297,
                    40.494351018849216
                ]
            }
        },
        {
            "type": "Feature",
            "properties": {
                "name": "什锦口 Shijinkou"
            },
            "geometry": {
                "type": "Point",
                "coordinates": [
                    116.23786211013794,
                    40.49539535733108
                ]
            }
        },
        {
            "type": "Feature",
            "properties": {
                "name": "小张家口 Xiaozhangjiakou"
            },
            "geometry": {
                "type": "Point",
                "coordinates": [
                    116.03004455566405,
                    40.39127329579795
                ]
            }
        },
        {
            "type": "Feature",
            "properties": {
                "name": "岔道城 Chadaocheng"
            },
            "geometry": {
                "type": "Point",
                "coordinates": [
                    115.9899616241455,
                    40.36315754281445
                ]
            }
        },
        {
            "type": "Feature",
            "properties": {
                "name": "东沟口 Donggoukou"
            },
            "geometry": {
                "type": "Point",
                "coordinates": [
                    115.97648620605469,
                    40.332805524187705
                ]
            }
        },
        {
            "type": "Feature",
            "properties": {
                "name": "八达岭 Badaling"
            },
            "geometry": {
                "type": "Point",
                "coordinates": [
                    116.00738525390625,
                    40.35393563702693
                ]
            }
        },
        {
            "type": "Feature",
            "properties": {
                "name": "青龙桥口 Qinglongqiaokou"
            },
            "geometry": {
                "type": "Point",
                "coordinates": [
                    116.01845741271973,
                    40.349356917382785
                ]
            }
        },
        {
            "type": "Feature",
            "properties": {
                "name": "石佛寺口 Shifosikou"
            },
            "geometry": {
                "type": "Point",
                "coordinates": [
                    116.03150367736818,
                    40.33607687246644
                ]
            }
        },
        {
            "type": "Feature",
            "properties": {
                "name": "上关 Shangguan"
            },
            "geometry": {
                "type": "Point",
                "coordinates": [
                    116.04223251342773,
                    40.31258507336782
                ]
            }
        },
        {
            "type": "Feature",
            "properties": {
                "name": "居庸关 Juyongguan"
            },
            "geometry": {
                "type": "Point",
                "coordinates": [
                    116.06720924377441,
                    40.29026356570576
                ]
            }
        },
        {
            "type": "Feature",
            "properties": {
                "name": "南口 Nankou"
            },
            "geometry": {
                "type": "Point",
                "coordinates": [
                    116.11948013305663,
                    40.25411458509127
                ]
            }
        },
        {
            "type": "Feature",
            "properties": {
                "name": "花家窑口 Huajiayaokou"
            },
            "geometry": {
                "type": "Point",
                "coordinates": [
                    115.95009326934814,
                    40.31683906928025
                ]
            }
        },
        {
            "type": "Feature",
            "properties": {
                "name": "石硖口 Shixiakou"
            },
            "geometry": {
                "type": "Point",
                "coordinates": [
                    115.94236850738525,
                    40.30927986078907
                ]
            }
        },
        {
            "type": "Feature",
            "properties": {
                "name": "踞虎关 Juhuguan"
            },
            "geometry": {
                "type": "Point",
                "coordinates": [
                    115.83988666534422,
                    40.24569669664078
                ]
            }
        },
        {
            "type": "Feature",
            "properties": {
                "name": "水口关 Shuikouguan"
            },
            "geometry": {
                "type": "Point",
                "coordinates": [
                    115.77263832092285,
                    40.176184581025225
                ]
            }
        },
        {
            "type": "Feature",
            "properties": {
                "name": "灰岭口 Huilingkou"
            },
            "geometry": {
                "type": "Point",
                "coordinates": [
                    115.8150815963745,
                    40.169462281610414
                ]
            }
        },
        {
            "type": "Feature",
            "properties": {
                "name": "白羊口 Baiyangkou"
            },
            "geometry": {
                "type": "Point",
                "coordinates": [
                    116.0188865661621,
                    40.19487235276778
                ]
            }
        },
        {
            "type": "Feature",
            "properties": {
                "name": "得胜口 Deshengkou"
            },
            "geometry": {
                "type": "Point",
                "coordinates": [
                    116.19827270507812,
                    40.29176935388435
                ]
            }
        },
        {
            "type": "Feature",
            "properties": {
                "name": "锥石口 Zhuishikou"
            },
            "geometry": {
                "type": "Point",
                "coordinates": [
                    116.20960235595702,
                    40.328487101623004
                ]
            }
        },
        {
            "type": "Feature",
            "properties": {
                "name": "灰岭口 Huilingkou"
            },
            "geometry": {
                "type": "Point",
                "coordinates": [
                    116.24290466308594,
                    40.356878935492404
                ]
            }
        },
        {
            "type": "Feature",
            "properties": {
                "name": "向阳口 Xiangyangkou"
            },
            "geometry": {
                "type": "Point",
                "coordinates": [
                    115.75212478637695,
                    40.09402855427737
                ]
            }
        },
        {
            "type": "Feature",
            "properties": {
                "name": "沿河城 Yanhecheng"
            },
            "geometry": {
                "type": "Point",
                "coordinates": [
                    115.71985244750977,
                    40.068613587311496
                ]
            }
        },
        {
            "type": "Feature",
            "properties": {
                "name": "沿河口 Yanhekou"
            },
            "geometry": {
                "type": "Point",
                "coordinates": [
                    115.70311546325682,
                    40.064081240132545
                ]
            }
        },
        {
            "type": "Feature",
            "properties": {
                "name": "东小龙门口 Dongxiaolongmenkou"
            },
            "geometry": {
                "type": "Point",
                "coordinates": [
                    115.66951274871826,
                    40.055606912629436
                ]
            }
        },
        {
            "type": "Feature",
            "properties": {
                "name": "天津关 Tianjinguan"
            },
            "geometry": {
                "type": "Point",
                "coordinates": [
                    115.5996036529541,
                    40.0299147220413
                ]
            }
        },
        {
            "type": "Feature",
            "properties": {
                "name": "东龙门口 Donglongmenkou"
            },
            "geometry": {
                "type": "Point",
                "coordinates": [
                    115.5681037902832,
                    40.005593503927756
                ]
            }
        },
        {
            "type": "Feature",
            "properties": {
                "name": "洪水口 Hongshuikou"
            },
            "geometry": {
                "type": "Point",
                "coordinates": [
                    115.47695159912108,
                    39.99454749488489
                ]
            }
        },
        {
            "type": "Feature",
            "properties": {
                "name": "小龙门口 Xiaolongmenkou"
            },
            "geometry": {
                "type": "Point",
                "coordinates": [
                    115.46811103820801,
                    39.96264869397871
                ]
            }
        }
    ]
}