{
    "type": "FeatureCollection",
    "features": [
        {
            "type": "Feature",
            "properties": {
                "name": "彰作关 Zhangzuoguan"
            },
            "geometry": {
                "type": "Point",
                "coordinates": [
                    117.3441982269287,
                    40.22738335523681
                ]
            }
        },
        {
            "type": "Feature",
            "properties": {
                "name": "将军关 Jiangjunguan"
            },
            "geometry": {
                "type": "Point",
                "coordinates": [
                    117.31244087219237,
                    40.27598964655471
                ]
            }
        },
        {
            "type": "Feature",
            "properties": {
                "name": "黑水湾口 Heishuiwankou"
            },
            "geometry": {
                "type": "Point",
                "coordinates": [
                    117.28366613388062,
                    40.24374765881399
                ]
            }
        },
        {
            "type": "Feature",
            "properties": {
                "name": "黄松峪关 Huangsongyuguan"
            },
            "geometry": {
                "type": "Point",
                "coordinates": [
                    117.25195169448853,
                    40.24017700697893
                ]
            }
        },
        {
            "type": "Feature",
            "properties": {
                "name": "北寨口 Beizhaikou"
            },
            "geometry": {
                "type": "Point",
                "coordinates": [
                    117.19671964645386,
                    40.248284408045215
                ]
            }
        },
        {
            "type": "Feature",
            "properties": {
                "name": "熊儿河口 Xiongerhekou"
            },
            "geometry": {
                "type": "Point",
                "coordinates": [
                    117.1688461303711,
                    40.299199599903325
                ]
            }
        },
        {
            "type": "Feature",
            "properties": {
                "name": "南水峪关 Nanshuiyuguan"
            },
            "geometry": {
                "type": "Point",
                "coordinates": [
                    117.21742630004883,
                    40.32351403031129
                ]
            }
        },
        {
            "type": "Feature",
            "properties": {
                "name": "北水峪关 Beishuiyuguan"
            },
            "geometry": {
                "type": "Point",
                "coordinates": [
                    117.208092212677,
                    40.36423661956072
                ]
            }
        },
        {
            "type": "Feature",
            "properties": {
                "name": "黄门子口 Huangmenzikou"
            },
            "geometry": {
                "type": "Point",
                "coordinates": [
                    117.22291946411133,
                    40.38400028710144
                ]
            }
        },
        {
            "type": "Feature",
            "properties": {
                "name": "墙子路关 Qiangziluguan"
            },
            "geometry": {
                "type": "Point",
                "coordinates": [
                    117.22901344299315,
                    40.42035747630869
                ]
            }
        },
        {
            "type": "Feature",
            "properties": {
                "name": "磨刀峪口 Modaoyukou"
            },
            "geometry": {
                "type": "Point",
                "coordinates": [
                    117.24572896957396,
                    40.4298969636954
                ]
            }
        },
        {
            "type": "Feature",
            "properties": {
                "name": "泉水河口 Quanshuihekou"
            },
            "geometry": {
                "type": "Point",
                "coordinates": [
                    117.25285291671753,
                    40.44123151309826
                ]
            }
        },
        {
            "type": "Feature",
            "properties": {
                "name": "石灰峪口 Shihuiyukou"
            },
            "geometry": {
                "type": "Point",
                "coordinates": [
                    117.23036527633667,
                    40.46621303493047
                ]
            }
        },
        {
            "type": "Feature",
            "properties": {
                "name": "小黄岩口 Xiaohuangyankou"
            },
            "geometry": {
                "type": "Point",
                "coordinates": [
                    117.20577478408812,
                    40.50560943602521
                ]
            }
        },
        {
            "type": "Feature",
            "properties": {
                "name": "大黄岩口 Dahuangyankou"
            },
            "geometry": {
                "type": "Point",
                "coordinates": [
                    117.24122285842894,
                    40.537612175160646
                ]
            }
        },
        {
            "type": "Feature",
            "properties": {
                "name": "大虫峪口 Dachongyukou"
            },
            "geometry": {
                "type": "Point",
                "coordinates": [
                    117.34252452850342,
                    40.605253659107085
                ]
            }
        },
        {
            "type": "Feature",
            "properties": {
                "name": "镰钯峪口 Lianpangyukou"
            },
            "geometry": {
                "type": "Point",
                "coordinates": [
                    117.42359161376952,
                    40.62607020467508
                ]
            }
        },
        {
            "type": "Feature",
            "properties": {
                "name": "大黑关 Daheiguan"
            },
            "geometry": {
                "type": "Point",
                "coordinates": [
                    117.49714851379395,
                    40.64704307144758
                ]
            }
        },
        {
            "type": "Feature",
            "properties": {
                "name": "水谷寨口 Shuiguzhaikou"
            },
            "geometry": {
                "type": "Point",
                "coordinates": [
                    117.49423027038576,
                    40.66739087336782
                ]
            }
        },
        {
            "type": "Feature",
            "properties": {
                "name": "大角峪口 Dajiaoyukou"
            },
            "geometry": {
                "type": "Point",
                "coordinates": [
                    117.44646549224854,
                    40.6750725891548
                ]
            }
        },
        {
            "type": "Feature",
            "properties": {
                "name": "倒班岭关 Daobanlingguan"
            },
            "geometry": {
                "type": "Point",
                "coordinates": [
                    117.43213176727295,
                    40.67995457563685
                ]
            }
        },
        {
            "type": "Feature",
            "properties": {
                "name": "师姑峪口 Shiguyukou"
            },
            "geometry": {
                "type": "Point",
                "coordinates": [
                    117.4174976348877,
                    40.68350192818986
                ]
            }
        },
        {
            "type": "Feature",
            "properties": {
                "name": "扒头崖口 Patouyakou"
            },
            "geometry": {
                "type": "Point",
                "coordinates": [
                    117.40294933319092,
                    40.6853568905881
                ]
            }
        },
        {
            "type": "Feature",
            "properties": {
                "name": "齐头崖口 Qitouyakou"
            },
            "geometry": {
                "type": "Point",
                "coordinates": [
                    117.39301443099974,
                    40.6823303463911
                ]
            }
        },
        {
            "type": "Feature",
            "properties": {
                "name": "白岭关 Bailingguan"
            },
            "geometry": {
                "type": "Point",
                "coordinates": [
                    117.3432970046997,
                    40.66797679811877
                ]
            }
        },
        {
            "type": "Feature",
            "properties": {
                "name": "望京楼 Wangjinglou"
            },
            "geometry": {
                "type": "Point",
                "coordinates": [
                    117.31032192707063,
                    40.65746192135486
                ]
            }
        },
        {
            "type": "Feature",
            "properties": {
                "name": "司马台 Simatai"
            },
            "geometry": {
                "type": "Point",
                "coordinates": [
                    117.27473974227904,
                    40.661759222981814
                ]
            }
        },
        {
            "type": "Feature",
            "properties": {
                "name": "沙岭口 Shalingkou"
            },
            "geometry": {
                "type": "Point",
                "coordinates": [
                    117.25130796432495,
                    40.677904184859585
                ]
            }
        },
        {
            "type": "Feature",
            "properties": {
                "name": "砖垛口 Zhuanduokou"
            },
            "geometry": {
                "type": "Point",
                "coordinates": [
                    117.23209261894226,
                    40.676594179957114
                ]
            }
        },
        {
            "type": "Feature",
            "properties": {
                "name": "古北口 Gubeikou"
            },
            "geometry": {
                "type": "Point",
                "coordinates": [
                    117.15755939483643,
                    40.695444378653626
                ]
            }
        },
        {
            "type": "Feature",
            "properties": {
                "name": "古北口城 Gubeikoucheng"
            },
            "geometry": {
                "type": "Point",
                "coordinates": [
                    117.1622371673584,
                    40.68350192818986
                ]
            }
        },
        {
            "type": "Feature",
            "properties": {
                "name": "潮河关 Chaoheguan"
            },
            "geometry": {
                "type": "Point",
                "coordinates": [
                    117.10653305053711,
                    40.68363210267408
                ]
            }
        },
        {
            "type": "Feature",
            "properties": {
                "name": "掉马河口 Diaomahekou"
            },
            "geometry": {
                "type": "Point",
                "coordinates": [
                    117.05095767974855,
                    40.680442754621694
                ]
            }
        },
        {
            "type": "Feature",
            "properties": {
                "name": "西台子口 Xitaizikou"
            },
            "geometry": {
                "type": "Point",
                "coordinates": [
                    117.00795650482176,
                    40.657852596578444
                ]
            }
        },
        {
            "type": "Feature",
            "properties": {
                "name": "东驼谷关 Dongtuoguguan"
            },
            "geometry": {
                "type": "Point",
                "coordinates": [
                    116.99117660522461,
                    40.676081562335845
                ]
            }
        },
        {
            "type": "Feature",
            "properties": {
                "name": "西驼谷关 Xituoguguan"
            },
            "geometry": {
                "type": "Point",
                "coordinates": [
                    116.95950508117677,
                    40.69385000634655
                ]
            }
        },
        {
            "type": "Feature",
            "properties": {
                "name": "响水谷关"
            },
            "geometry": {
                "type": "Point",
                "coordinates": [
                    116.94881916046141,
                    40.69010796230609
                ]
            }
        },
        {
            "type": "Feature",
            "properties": {
                "name": "洪桐峪 Hongtongyu"
            },
            "geometry": {
                "type": "Point",
                "coordinates": [
                    116.91912174224854,
                    40.71467145556915
                ]
            }
        },
        {
            "type": "Feature",
            "properties": {
                "name": "白马关 Baimaguan"
            },
            "geometry": {
                "type": "Point",
                "coordinates": [
                    116.91195487976073,
                    40.71857475261651
                ]
            }
        },
        {
            "type": "Feature",
            "properties": {
                "name": "孟思郎峪 Mengsilangyu"
            },
            "geometry": {
                "type": "Point",
                "coordinates": [
                    116.88637733459471,
                    40.67888056928554
                ]
            }
        },
        {
            "type": "Feature",
            "properties": {
                "name": "西白莲峪 Xibailianyu"
            },
            "geometry": {
                "type": "Point",
                "coordinates": [
                    116.87796592712404,
                    40.658503716866974
                ]
            }
        },
        {
            "type": "Feature",
            "properties": {
                "name": "冯家峪 Fengjiayu"
            },
            "geometry": {
                "type": "Point",
                "coordinates": [
                    116.85479164123534,
                    40.64548010364599
                ]
            }
        },
        {
            "type": "Feature",
            "properties": {
                "name": "鹿皮关 Lupiguan"
            },
            "geometry": {
                "type": "Point",
                "coordinates": [
                    116.79754257202147,
                    40.561873177243555
                ]
            }
        },
        {
            "type": "Feature",
            "properties": {
                "name": "北石城口 Beishichengkou"
            },
            "geometry": {
                "type": "Point",
                "coordinates": [
                    116.81093215942383,
                    40.54804809196476
                ]
            }
        },
        {
            "type": "Feature",
            "properties": {
                "name": "水堡子关 Shuibaoziguan"
            },
            "geometry": {
                "type": "Point",
                "coordinates": [
                    116.80599689483643,
                    40.54315645840702
                ]
            }
        },
        {
            "type": "Feature",
            "properties": {
                "name": "白道峪 Baidaoyu"
            },
            "geometry": {
                "type": "Point",
                "coordinates": [
                    116.75951957702635,
                    40.48579988617661
                ]
            }
        },
        {
            "type": "Feature",
            "properties": {
                "name": "牛盆峪 Niupenyu"
            },
            "geometry": {
                "type": "Point",
                "coordinates": [
                    116.73334121704102,
                    40.471175577655
                ]
            }
        },
        {
            "type": "Feature",
            "properties": {
                "name": "小水峪关 Xiaoshuiyuguan"
            },
            "geometry": {
                "type": "Point",
                "coordinates": [
                    116.71892166137695,
                    40.464449938054564
                ]
            }
        },
        {
            "type": "Feature",
            "properties": {
                "name": "大水峪关 Dashuiyu"
            },
            "geometry": {
                "type": "Point",
                "coordinates": [
                    116.68785095214842,
                    40.45168242995823
                ]
            }
        },
        {
            "type": "Feature",
            "properties": {
                "name": "河防口 Hefangkou"
            },
            "geometry": {
                "type": "Point",
                "coordinates": [
                    116.66570663452148,
                    40.43897782117671
                ]
            }
        },
        {
            "type": "Feature",
            "properties": {
                "name": "官地河口 Guandihekou"
            },
            "geometry": {
                "type": "Point",
                "coordinates": [
                    116.62909984588623,
                    40.4222197427904
                ]
            }
        },
        {
            "type": "Feature",
            "properties": {
                "name": "莲花池关 Lianhuachiguan"
            },
            "geometry": {
                "type": "Point",
                "coordinates": [
                    116.57936096191408,
                    40.437867278530454
                ]
            }
        },
        {
            "type": "Feature",
            "properties": {
                "name": "慕田峪 Mutianyu"
            },
            "geometry": {
                "type": "Point",
                "coordinates": [
                    116.56440496444701,
                    40.43088513804528
                ]
            }
        },
        {
            "type": "Feature",
            "properties": {
                "name": "正北楼 Zhengbeikou"
            },
            "geometry": {
                "type": "Point",
                "coordinates": [
                    116.53626054525375,
                    40.45492555790358
                ]
            }
        },
        {
            "type": "Feature",
            "properties": {
                "name": "北京结 Beijingjie"
            },
            "geometry": {
                "type": "Point",
                "coordinates": [
                    116.49451464414595,
                    40.46316227671911
                ]
            }
        },
        {
            "type": "Feature",
            "properties": {
                "name": "磨石口 Moshikou"
            },
            "geometry": {
                "type": "Point",
                "coordinates": [
                    116.4531362056732,
                    40.459862404327474
                ]
            }
        },
        {
            "type": "Feature",
            "properties": {
                "name": "驴鞍岭 Lu'anling"
            },
            "geometry": {
                "type": "Point",
                "coordinates": [
                    116.44208550453186,
                    40.458197101060826
                ]
            }
        },
        {
            "type": "Feature",
            "properties": {
                "name": "大榛峪 Dazhenyu"
            },
            "geometry": {
                "type": "Point",
                "coordinates": [
                    116.43100261688232,
                    40.45465411266823
                ]
            }
        },
        {
            "type": "Feature",
            "properties": {
                "name": "铁矿峪 Tiekuangyu"
            },
            "geometry": {
                "type": "Point",
                "coordinates": [
                    116.40694856643677,
                    40.45187836912884
                ]
            }
        },
        {
            "type": "Feature",
            "properties": {
                "name": "小长峪 Xiaochangyu"
            },
            "geometry": {
                "type": "Point",
                "coordinates": [
                    116.35255336761475,
                    40.417727345480294
                ]
            }
        },
        {
            "type": "Feature",
            "properties": {
                "name": "二道关 Erdaoguan"
            },
            "geometry": {
                "type": "Point",
                "coordinates": [
                    116.32770538330078,
                    40.428622932361975
                ]
            }
        },
        {
            "type": "Feature",
            "properties": {
                "name": "黄花城 Huanghuacheng"
            },
            "geometry": {
                "type": "Point",
                "coordinates": [
                    116.33907794952391,
                    40.416175356693785
                ]
            }
        },
        {
            "type": "Feature",
            "properties": {
                "name": "撞道口 Zhuangdaokou"
            },
            "geometry": {
                "type": "Point",
                "coordinates": [
                    116.32663249969481,
                    40.41379012519376
                ]
            }
        },
        {
            "type": "Feature",
            "properties": {
                "name": "鹞子峪 Yaoziyu"
            },
            "geometry": {
                "type": "Point",
                "coordinates": [
                    116.31779193878174,
                    40.425780775492626
                ]
            }
        },
        {
            "type": "Feature",
            "properties": {
                "name": "西水峪 Xishuiyu"
            },
            "geometry": {
                "type": "Point",
                "coordinates": [
                    116.3073205947876,
                    40.41078395958836
                ]
            }
        }
    ]
}