{
    "type": "FeatureCollection",
    "features": [
        {
            "type": "Feature",
            "properties": {
                "name": "老龙头 Dragon's Head"
            },
            "geometry": {
                "type": "Point",
                "coordinates": [
                    119.79549586772919,
                    39.96661630144573
                ]
            }
        },
        {
            "type": "Feature",
            "properties": {
                "name": "宁海城 Ninghaicheng"
            },
            "geometry": {
                "type": "Point",
                "coordinates": [
                    119.7929263114929,
                    39.967771592562144
                ]
            }
        },
        {
            "type": "Feature",
            "properties": {
                "name": "铁门关 Tiemenguan"
            },
            "geometry": {
                "type": "Point",
                "coordinates": [
                    119.794921875,
                    39.97260633571969
                ]
            }
        },
        {
            "type": "Feature",
            "properties": {
                "name": "靖远城 Jingyuancheng"
            },
            "geometry": {
                "type": "Point",
                "coordinates": [
                    119.79093074798584,
                    39.97582930784317
                ]
            }
        },
        {
            "type": "Feature",
            "properties": {
                "name": "南翼城 Nanyicheng"
            },
            "geometry": {
                "type": "Point",
                "coordinates": [
                    119.77144718170166,
                    39.9967173876871
                ]
            }
        },
        {
            "type": "Feature",
            "properties": {
                "name": "南水关 Nanshuiguan"
            },
            "geometry": {
                "type": "Point",
                "coordinates": [
                    119.76782083511353,
                    40.00120490177952
                ]
            }
        },
        {
            "type": "Feature",
            "properties": {
                "name": "山海关 Shanhaiguan"
            },
            "geometry": {
                "type": "Point",
                "coordinates": [
                    119.75020408630371,
                    40.007500074635985
                ]
            }
        },
        {
            "type": "Feature",
            "properties": {
                "name": "北水关 Beishuiguan"
            },
            "geometry": {
                "type": "Point",
                "coordinates": [
                    119.74368095397949,
                    40.02215916688334
                ]
            }
        },
        {
            "type": "Feature",
            "properties": {
                "name": "旱门关 Hanmenguan"
            },
            "geometry": {
                "type": "Point",
                "coordinates": [
                    119.73381042480469,
                    40.03688082490137
                ]
            }
        },
        {
            "type": "Feature",
            "properties": {
                "name": "三道关 Sandaoguan"
            },
            "geometry": {
                "type": "Point",
                "coordinates": [
                    119.75316524505614,
                    40.06160145880468
                ]
            }
        },
        {
            "type": "Feature",
            "properties": {
                "name": "滥石关 Lanshiguan"
            },
            "geometry": {
                "type": "Point",
                "coordinates": [
                    119.75331544876099,
                    40.067513371328374
                ]
            }
        },
        {
            "type": "Feature",
            "properties": {
                "name": "寺儿峪 Sieryu"
            },
            "geometry": {
                "type": "Point",
                "coordinates": [
                    119.74923849105835,
                    40.08744587187744
                ]
            }
        },
        {
            "type": "Feature",
            "properties": {
                "name": "九门口 Jiumenkou"
            },
            "geometry": {
                "type": "Point",
                "coordinates": [
                    119.74196434020995,
                    40.119926294203026
                ]
            }
        },
        {
            "type": "Feature",
            "properties": {
                "name": "庙山口 Miaoshankou"
            },
            "geometry": {
                "type": "Point",
                "coordinates": [
                    119.74586963653563,
                    40.123700173174356
                ]
            }
        },
        {
            "type": "Feature",
            "properties": {
                "name": "夕阳口 Xiyangkou"
            },
            "geometry": {
                "type": "Point",
                "coordinates": [
                    119.75440979003906,
                    40.137103953902795
                ]
            }
        },
        {
            "type": "Feature",
            "properties": {
                "name": "黄土岭 Huangtuling"
            },
            "geometry": {
                "type": "Point",
                "coordinates": [
                    119.74948525428772,
                    40.15431007296909
                ]
            }
        },
        {
            "type": "Feature",
            "properties": {
                "name": "大青山口 Daqingshankou"
            },
            "geometry": {
                "type": "Point",
                "coordinates": [
                    119.74287629127502,
                    40.19180725547914
                ]
            }
        },
        {
            "type": "Feature",
            "properties": {
                "name": "小河口 Xiaohekou"
            },
            "geometry": {
                "type": "Point",
                "coordinates": [
                    119.70653772354126,
                    40.20355877416232
                ]
            }
        },
        {
            "type": "Feature",
            "properties": {
                "name": "小毛山关 Xiaomaoshanguan"
            },
            "geometry": {
                "type": "Point",
                "coordinates": [
                    119.68116402626038,
                    40.213899081255455
                ]
            }
        },
        {
            "type": "Feature",
            "properties": {
                "name": "大毛山关 Damaoshanguan"
            },
            "geometry": {
                "type": "Point",
                "coordinates": [
                    119.67577815055846,
                    40.21876552607366
                ]
            }
        },
        {
            "type": "Feature",
            "properties": {
                "name": "董家口 Dongjiakou"
            },
            "geometry": {
                "type": "Point",
                "coordinates": [
                    119.64967489242552,
                    40.2203056748532
                ]
            }
        },
        {
            "type": "Feature",
            "properties": {
                "name": "城子峪 Chengziyu"
            },
            "geometry": {
                "type": "Point",
                "coordinates": [
                    119.62692975997925,
                    40.222361882745155
                ]
            }
        },
        {
            "type": "Feature",
            "properties": {
                "name": "河口关 Hekouguan"
            },
            "geometry": {
                "type": "Point",
                "coordinates": [
                    119.61551427841185,
                    40.22985709225798
                ]
            }
        },
        {
            "type": "Feature",
            "properties": {
                "name": "平顶峪 Pingdingyu"
            },
            "geometry": {
                "type": "Point",
                "coordinates": [
                    119.59937810897827,
                    40.22546655648198
                ]
            }
        },
        {
            "type": "Feature",
            "properties": {
                "name": "板厂峪 Banchangyu"
            },
            "geometry": {
                "type": "Point",
                "coordinates": [
                    119.55770730972291,
                    40.228235248383776
                ]
            }
        },
        {
            "type": "Feature",
            "properties": {
                "name": "义院口 Yiyuankou"
            },
            "geometry": {
                "type": "Point",
                "coordinates": [
                    119.54905986785889,
                    40.18497175354249
                ]
            }
        },
        {
            "type": "Feature",
            "properties": {
                "name": "拿子峪 Naziyu"
            },
            "geometry": {
                "type": "Point",
                "coordinates": [
                    119.53324556350707,
                    40.176922353823336
                ]
            }
        },
        {
            "type": "Feature",
            "properties": {
                "name": "清水关 Qingshuiguan"
            },
            "geometry": {
                "type": "Point",
                "coordinates": [
                    119.50425624847412,
                    40.16493665140925
                ]
            }
        },
        {
            "type": "Feature",
            "properties": {
                "name": "花厂峪 Huachangyu"
            },
            "geometry": {
                "type": "Point",
                "coordinates": [
                    119.52210903167725,
                    40.15060349857738
                ]
            }
        },
        {
            "type": "Feature",
            "properties": {
                "name": "大绪口 Daxukou"
            },
            "geometry": {
                "type": "Point",
                "coordinates": [
                    119.52034950256346,
                    40.14266484459762
                ]
            }
        },
        {
            "type": "Feature",
            "properties": {
                "name": "苇子峪 Weiziyu"
            },
            "geometry": {
                "type": "Point",
                "coordinates": [
                    119.4955015182495,
                    40.124651813928516
                ]
            }
        },
        {
            "type": "Feature",
            "properties": {
                "name": "柳灌峪 Liuguanyu"
            },
            "geometry": {
                "type": "Point",
                "coordinates": [
                    119.47689771652222,
                    40.10423783939073
                ]
            }
        },
        {
            "type": "Feature",
            "properties": {
                "name": "甘泉口 Ganquankou"
            },
            "geometry": {
                "type": "Point",
                "coordinates": [
                    119.4001865386963,
                    40.07232463254544
                ]
            }
        },
        {
            "type": "Feature",
            "properties": {
                "name": "梁家湾 Liangjiawan"
            },
            "geometry": {
                "type": "Point",
                "coordinates": [
                    119.35194969177245,
                    40.10285918295783
                ]
            }
        },
        {
            "type": "Feature",
            "properties": {
                "name": "箭杆岭关 Jianganlingguan"
            },
            "geometry": {
                "type": "Point",
                "coordinates": [
                    119.3305778503418,
                    40.13649698548254
                ]
            }
        },
        {
            "type": "Feature",
            "properties": {
                "name": "界岭口 Jielingkou"
            },
            "geometry": {
                "type": "Point",
                "coordinates": [
                    119.28927183151244,
                    40.16123065706354
                ]
            }
        },
        {
            "type": "Feature",
            "properties": {
                "name": "青山口 Qingshankou"
            },
            "geometry": {
                "type": "Point",
                "coordinates": [
                    119.19262647628783,
                    40.14332096687241
                ]
            }
        },
        {
            "type": "Feature",
            "properties": {
                "name": "河口 Hekou"
            },
            "geometry": {
                "type": "Point",
                "coordinates": [
                    119.14329528808594,
                    40.10064342658858
                ]
            }
        },
        {
            "type": "Feature",
            "properties": {
                "name": "乾涧口 Qianjiankou"
            },
            "geometry": {
                "type": "Point",
                "coordinates": [
                    119.12106513977051,
                    40.10142305279856
                ]
            }
        },
        {
            "type": "Feature",
            "properties": {
                "name": "重峪口 Chongyukou"
            },
            "geometry": {
                "type": "Point",
                "coordinates": [
                    119.08997297286986,
                    40.09128721527465
                ]
            }
        },
        {
            "type": "Feature",
            "properties": {
                "name": "桃林口 Taolinkou"
            },
            "geometry": {
                "type": "Point",
                "coordinates": [
                    119.03446197509764,
                    40.116349119896675
                ]
            }
        },
        {
            "type": "Feature",
            "properties": {
                "name": "刘家口 Liujiakou"
            },
            "geometry": {
                "type": "Point",
                "coordinates": [
                    118.93421173095703,
                    40.14082766851734
                ]
            }
        },
        {
            "type": "Feature",
            "properties": {
                "name": "徐流口 Xuliukou"
            },
            "geometry": {
                "type": "Point",
                "coordinates": [
                    118.91337633132935,
                    40.15157116361649
                ]
            }
        },
        {
            "type": "Feature",
            "properties": {
                "name": "河流口 Heliukou"
            },
            "geometry": {
                "type": "Point",
                "coordinates": [
                    118.87754201889037,
                    40.16121425840891
                ]
            }
        },
        {
            "type": "Feature",
            "properties": {
                "name": "冷口 Lenkou"
            },
            "geometry": {
                "type": "Point",
                "coordinates": [
                    118.83516311645506,
                    40.17349574116308
                ]
            }
        },
        {
            "type": "Feature",
            "properties": {
                "name": "石门子 Shimenzi"
            },
            "geometry": {
                "type": "Point",
                "coordinates": [
                    118.77227067947386,
                    40.19546240907115
                ]
            }
        },
        {
            "type": "Feature",
            "properties": {
                "name": "白羊峪 Baiyangyu"
            },
            "geometry": {
                "type": "Point",
                "coordinates": [
                    118.72351884841918,
                    40.197970091080734
                ]
            }
        },
        {
            "type": "Feature",
            "properties": {
                "name": "五重安 Wuchongan"
            },
            "geometry": {
                "type": "Point",
                "coordinates": [
                    118.68221282958984,
                    40.22446717835459
                ]
            }
        },
        {
            "type": "Feature",
            "properties": {
                "name": "擦崖子 Cayazi"
            },
            "geometry": {
                "type": "Point",
                "coordinates": [
                    118.59425783157349,
                    40.258732514898966
                ]
            }
        },
        {
            "type": "Feature",
            "properties": {
                "name": "城子峪 Chengziyu"
            },
            "geometry": {
                "type": "Point",
                "coordinates": [
                    118.56391668319704,
                    40.26870420296336
                ]
            }
        },
        {
            "type": "Feature",
            "properties": {
                "name": "大岭寨 Dalingzhai"
            },
            "geometry": {
                "type": "Point",
                "coordinates": [
                    118.52600097656249,
                    40.30060699939572
                ]
            }
        },
        {
            "type": "Feature",
            "properties": {
                "name": "榆木岭 Yumuling"
            },
            "geometry": {
                "type": "Point",
                "coordinates": [
                    118.53157997131348,
                    40.363615335058896
                ]
            }
        },
        {
            "type": "Feature",
            "properties": {
                "name": "青山口 Qingshankou"
            },
            "geometry": {
                "type": "Point",
                "coordinates": [
                    118.54593515396117,
                    40.40691168969942
                ]
            }
        },
        {
            "type": "Feature",
            "properties": {
                "name": "董家口 Dongjiakou"
            },
            "geometry": {
                "type": "Point",
                "coordinates": [
                    118.4696102142334,
                    40.4017646570263
                ]
            }
        },
        {
            "type": "Feature",
            "properties": {
                "name": "铁门关 Tiemenguan"
            },
            "geometry": {
                "type": "Point",
                "coordinates": [
                    118.4043788909912,
                    40.412826206284144
                ]
            }
        },
        {
            "type": "Feature",
            "properties": {
                "name": "李家峪 Lijiayu"
            },
            "geometry": {
                "type": "Point",
                "coordinates": [
                    118.39583873748778,
                    40.415244146238116
                ]
            }
        },
        {
            "type": "Feature",
            "properties": {
                "name": "椴木谷 Duanmugu"
            },
            "geometry": {
                "type": "Point",
                "coordinates": [
                    118.39301705360411,
                    40.4201451093125
                ]
            }
        },
        {
            "type": "Feature",
            "properties": {
                "name": "石梯子谷 Shitizigu"
            },
            "geometry": {
                "type": "Point",
                "coordinates": [
                    118.3582019805908,
                    40.42607479729008
                ]
            }
        },
        {
            "type": "Feature",
            "properties": {
                "name": "喜峰口 Xifengkou"
            },
            "geometry": {
                "type": "Point",
                "coordinates": [
                    118.32088708877563,
                    40.427773564731304
                ]
            }
        },
        {
            "type": "Feature",
            "properties": {
                "name": "小喜峰口 Xiaoxifengkou"
            },
            "geometry": {
                "type": "Point",
                "coordinates": [
                    118.31103801727296,
                    40.41785803763854
                ]
            }
        },
        {
            "type": "Feature",
            "properties": {
                "name": "潘家口 Panjiakou"
            },
            "geometry": {
                "type": "Point",
                "coordinates": [
                    118.27065467834473,
                    40.4297009604458
                ]
            }
        },
        {
            "type": "Feature",
            "properties": {
                "name": "东常谷关 Dongchangguguan"
            },
            "geometry": {
                "type": "Point",
                "coordinates": [
                    118.24713706970213,
                    40.432640949208285
                ]
            }
        },
        {
            "type": "Feature",
            "properties": {
                "name": "西常谷关 Xichangguguan"
            },
            "geometry": {
                "type": "Point",
                "coordinates": [
                    118.21537971496582,
                    40.422448438628635
                ]
            }
        },
        {
            "type": "Feature",
            "properties": {
                "name": "三台山关 Santaishanguan"
            },
            "geometry": {
                "type": "Point",
                "coordinates": [
                    118.19130420684813,
                    40.41035916448923
                ]
            }
        },
        {
            "type": "Feature",
            "properties": {
                "name": "苏郎峪 Sulangyu"
            },
            "geometry": {
                "type": "Point",
                "coordinates": [
                    118.1681728363037,
                    40.400620818540496
                ]
            }
        },
        {
            "type": "Feature",
            "properties": {
                "name": "龙井关 Longjingguan"
            },
            "geometry": {
                "type": "Point",
                "coordinates": [
                    118.15499782562254,
                    40.390292711220134
                ]
            }
        },
        {
            "type": "Feature",
            "properties": {
                "name": "洪山口 Hongshankou"
            },
            "geometry": {
                "type": "Point",
                "coordinates": [
                    118.08781385421753,
                    40.35225135844595
                ]
            }
        },
        {
            "type": "Feature",
            "properties": {
                "name": "活口 Huokou"
            },
            "geometry": {
                "type": "Point",
                "coordinates": [
                    118.05451154708862,
                    40.31850787140828
                ]
            }
        },
        {
            "type": "Feature",
            "properties": {
                "name": "马蹄峪 Matiyu"
            },
            "geometry": {
                "type": "Point",
                "coordinates": [
                    117.99734830856323,
                    40.29147474579368
                ]
            }
        },
        {
            "type": "Feature",
            "properties": {
                "name": "秋科峪 Qiukeyu"
            },
            "geometry": {
                "type": "Point",
                "coordinates": [
                    117.97572970390318,
                    40.293414225453695
                ]
            }
        },
        {
            "type": "Feature",
            "properties": {
                "name": "甘查峪 Ganchayu"
            },
            "geometry": {
                "type": "Point",
                "coordinates": [
                    117.9643678665161,
                    40.291442011482125
                ]
            }
        },
        {
            "type": "Feature",
            "properties": {
                "name": "罗文峪 Luowenyu"
            },
            "geometry": {
                "type": "Point",
                "coordinates": [
                    117.94720172882079,
                    40.28090073863882
                ]
            }
        },
        {
            "type": "Feature",
            "properties": {
                "name": "口门子 Koumenzi"
            },
            "geometry": {
                "type": "Point",
                "coordinates": [
                    117.91304111480711,
                    40.28320882868767
                ]
            }
        },
        {
            "type": "Feature",
            "properties": {
                "name": "沙坡峪 Shapoyu"
            },
            "geometry": {
                "type": "Point",
                "coordinates": [
                    117.87645578384398,
                    40.26850773069548
                ]
            }
        },
        {
            "type": "Feature",
            "properties": {
                "name": "冷咀头 Lenzuitou"
            },
            "geometry": {
                "type": "Point",
                "coordinates": [
                    117.8376817703247,
                    40.26000975899116
                ]
            }
        },
        {
            "type": "Feature",
            "properties": {
                "name": "大安口 Da'ankou"
            },
            "geometry": {
                "type": "Point",
                "coordinates": [
                    117.77034759521483,
                    40.24373128010711
                ]
            }
        },
        {
            "type": "Feature",
            "properties": {
                "name": "上关 Shangguan"
            },
            "geometry": {
                "type": "Point",
                "coordinates": [
                    117.73069381713867,
                    40.23046322595866
                ]
            }
        },
        {
            "type": "Feature",
            "properties": {
                "name": "马兰峪 Malanyu"
            },
            "geometry": {
                "type": "Point",
                "coordinates": [
                    117.67383098602295,
                    40.22017459972432
                ]
            }
        },
        {
            "type": "Feature",
            "properties": {
                "name": "龙洞谷 Longdonggu"
            },
            "geometry": {
                "type": "Point",
                "coordinates": [
                    117.62241840362547,
                    40.20488622354671
                ]
            }
        },
        {
            "type": "Feature",
            "properties": {
                "name": "宁远堡 Ningyuanbao"
            },
            "geometry": {
                "type": "Point",
                "coordinates": [
                    116.11003875732422,
                    40.72325840697985
                ]
            }
        },
        {
            "type": "Feature",
            "properties": {
                "name": "拦马道口 Lanmadaokou"
            },
            "geometry": {
                "type": "Point",
                "coordinates": [
                    116.10918045043945,
                    40.842839945873486
                ]
            }
        },
        {
            "type": "Feature",
            "properties": {
                "name": "红沙梁口 Hongshaliangkou"
            },
            "geometry": {
                "type": "Point",
                "coordinates": [
                    116.0453224182129,
                    40.86361475441555
                ]
            }
        },
        {
            "type": "Feature",
            "properties": {
                "name": "平路口 Pinglukou"
            },
            "geometry": {
                "type": "Point",
                "coordinates": [
                    116.10291481018066,
                    40.86588660387655
                ]
            }
        },
        {
            "type": "Feature",
            "properties": {
                "name": "马营口 Mayingkou"
            },
            "geometry": {
                "type": "Point",
                "coordinates": [
                    116.0286283493042,
                    40.926321613277004
                ]
            }
        },
        {
            "type": "Feature",
            "properties": {
                "name": "唐口子 Tangkouzi"
            },
            "geometry": {
                "type": "Point",
                "coordinates": [
                    116.026611328125,
                    40.9479454156952
                ]
            }
        },
        {
            "type": "Feature",
            "properties": {
                "name": "青羊口 Qingyangkou"
            },
            "geometry": {
                "type": "Point",
                "coordinates": [
                    115.99785804748534,
                    41.0069776521105
                ]
            }
        },
        {
            "type": "Feature",
            "properties": {
                "name": "镇岭口 Zhenlingkou"
            },
            "geometry": {
                "type": "Point",
                "coordinates": [
                    115.92833518981934,
                    41.12255600126412
                ]
            }
        },
        {
            "type": "Feature",
            "properties": {
                "name": "两河口 Lianghekou"
            },
            "geometry": {
                "type": "Point",
                "coordinates": [
                    115.91760635375975,
                    41.15002932319817
                ]
            }
        },
        {
            "type": "Feature",
            "properties": {
                "name": "东栅子口 Dongzhazikou"
            },
            "geometry": {
                "type": "Point",
                "coordinates": [
                    115.75006484985353,
                    41.35336073190734
                ]
            }
        },
        {
            "type": "Feature",
            "properties": {
                "name": "北栅子口 Beizhazikou"
            },
            "geometry": {
                "type": "Point",
                "coordinates": [
                    115.7080078125,
                    41.35555127193843
                ]
            }
        },
        {
            "type": "Feature",
            "properties": {
                "name": "西栅子口 Xizhazikou"
            },
            "geometry": {
                "type": "Point",
                "coordinates": [
                    115.68878173828124,
                    41.34910829670645
                ]
            }
        },
        {
            "type": "Feature",
            "properties": {
                "name": "马厂口 Machangkou"
            },
            "geometry": {
                "type": "Point",
                "coordinates": [
                    115.61698436737059,
                    41.31411180957174
                ]
            }
        },
        {
            "type": "Feature",
            "properties": {
                "name": "马连口 Maliankou"
            },
            "geometry": {
                "type": "Point",
                "coordinates": [
                    115.56269645690918,
                    41.250128619131914
                ]
            }
        },
        {
            "type": "Feature",
            "properties": {
                "name": "挡将梁正口 Dangjiangliangkou"
            },
            "geometry": {
                "type": "Point",
                "coordinates": [
                    115.5208969116211,
                    41.242771693620575
                ]
            }
        },
        {
            "type": "Feature",
            "properties": {
                "name": "里界墙口 Lijieqiangkou"
            },
            "geometry": {
                "type": "Point",
                "coordinates": [
                    115.51591873168947,
                    41.15254982809119
                ]
            }
        },
        {
            "type": "Feature",
            "properties": {
                "name": "青虎沟口 Qinghugoukou"
            },
            "geometry": {
                "type": "Point",
                "coordinates": [
                    115.47381877899171,
                    41.09060784526085
                ]
            }
        },
        {
            "type": "Feature",
            "properties": {
                "name": "大边口 Dabiankou"
            },
            "geometry": {
                "type": "Point",
                "coordinates": [
                    115.49180030822754,
                    41.04304487986917
                ]
            }
        },
        {
            "type": "Feature",
            "properties": {
                "name": "棋盘梁 Qipanliang"
            },
            "geometry": {
                "type": "Point",
                "coordinates": [
                    115.48510551452637,
                    40.94107325037252
                ]
            }
        },
        {
            "type": "Feature",
            "properties": {
                "name": "青羊沟口 Qingyanggoukou"
            },
            "geometry": {
                "type": "Point",
                "coordinates": [
                    115.45377731323242,
                    40.872247367751896
                ]
            }
        },
        {
            "type": "Feature",
            "properties": {
                "name": "龙门关 Longmenguan"
            },
            "geometry": {
                "type": "Point",
                "coordinates": [
                    115.48755168914794,
                    40.713175131022695
                ]
            }
        },
        {
            "type": "Feature",
            "properties": {
                "name": "界牌寺口 Jiepaisikou"
            },
            "geometry": {
                "type": "Point",
                "coordinates": [
                    116.00373744964598,
                    40.72384384060296
                ]
            }
        },
        {
            "type": "Feature",
            "properties": {
                "name": "滴水崖堡 Dishuiyabao"
            },
            "geometry": {
                "type": "Point",
                "coordinates": [
                    116.06746673583983,
                    40.69202781984788
                ]
            }
        },
        {
            "type": "Feature",
            "properties": {
                "name": "雕鹗堡 Diao'ebao"
            },
            "geometry": {
                "type": "Point",
                "coordinates": [
                    115.81864356994629,
                    40.72358364851729
                ]
            }
        },
        {
            "type": "Feature",
            "properties": {
                "name": "三岔口堡 Sanchakoubao"
            },
            "geometry": {
                "type": "Point",
                "coordinates": [
                    115.67582130432129,
                    40.794903210298635
                ]
            }
        },
        {
            "type": "Feature",
            "properties": {
                "name": "常峪口 Changyukou"
            },
            "geometry": {
                "type": "Point",
                "coordinates": [
                    115.15663146972655,
                    40.79535805750898
                ]
            }
        },
        {
            "type": "Feature",
            "properties": {
                "name": "青边口 Qingbiankou"
            },
            "geometry": {
                "type": "Point",
                "coordinates": [
                    115.07062911987306,
                    40.813549390509365
                ]
            }
        },
        {
            "type": "Feature",
            "properties": {
                "name": "羊房堡关 Yangfangbaoguan"
            },
            "geometry": {
                "type": "Point",
                "coordinates": [
                    115.01436710357666,
                    40.81933059126812
                ]
            }
        },
        {
            "type": "Feature",
            "properties": {
                "name": "大境门 Dajingmen"
            },
            "geometry": {
                "type": "Point",
                "coordinates": [
                    114.88587856292725,
                    40.84417102733609
                ]
            }
        },
        {
            "type": "Feature",
            "properties": {
                "name": "永丰堡口 Yongfengbaokou"
            },
            "geometry": {
                "type": "Point",
                "coordinates": [
                    114.84882116317749,
                    40.85340669770076
                ]
            }
        },
        {
            "type": "Feature",
            "properties": {
                "name": "狼窝沟口 Langwogoukou"
            },
            "geometry": {
                "type": "Point",
                "coordinates": [
                    114.73464488983154,
                    41.01296864033438
                ]
            }
        },
        {
            "type": "Feature",
            "properties": {
                "name": "新开口 Xinkaikou"
            },
            "geometry": {
                "type": "Point",
                "coordinates": [
                    114.69780206680298,
                    41.014798211932735
                ]
            }
        },
        {
            "type": "Feature",
            "properties": {
                "name": "新河口 Xinhekou"
            },
            "geometry": {
                "type": "Point",
                "coordinates": [
                    114.54483032226562,
                    40.99256466562628
                ]
            }
        },
        {
            "type": "Feature",
            "properties": {
                "name": "庙儿沟口 Miao'ergoukou"
            },
            "geometry": {
                "type": "Point",
                "coordinates": [
                    114.39977645874023,
                    40.879710750227886
                ]
            }
        },
        {
            "type": "Feature",
            "properties": {
                "name": "东洋河口 Dongyanghekou"
            },
            "geometry": {
                "type": "Point",
                "coordinates": [
                    114.34505939483643,
                    40.740168859407845
                ]
            }
        },
        {
            "type": "Feature",
            "properties": {
                "name": "西洋河堡 Xiyanghebao"
            },
            "geometry": {
                "type": "Point",
                "coordinates": [
                    114.18142318725586,
                    40.68220016936447
                ]
            }
        },
        {
            "type": "Feature",
            "properties": {
                "name": "大龙门口 Dalongmenkou"
            },
            "geometry": {
                "type": "Point",
                "coordinates": [
                    115.36236763000488,
                    39.83902380724167
                ]
            }
        },
        {
            "type": "Feature",
            "properties": {
                "name": "马水口 Mashuikou"
            },
            "geometry": {
                "type": "Point",
                "coordinates": [
                    115.28632164001463,
                    39.83951809197629
                ]
            }
        },
        {
            "type": "Feature",
            "properties": {
                "name": "大龙门口 Dalongmenkou"
            },
            "geometry": {
                "type": "Point",
                "coordinates": [
                    115.36236763000488,
                    39.83902380724167
                ]
            }
        },
        {
            "type": "Feature",
            "properties": {
                "name": "马水口 Mashuikou"
            },
            "geometry": {
                "type": "Point",
                "coordinates": [
                    115.28632164001463,
                    39.83951809197629
                ]
            }
        },
        {
            "type": "Feature",
            "properties": {
                "name": "紫荆关 Zijingguan"
            },
            "geometry": {
                "type": "Point",
                "coordinates": [
                    115.16607284545898,
                    39.4254532195485
                ]
            }
        },
        {
            "type": "Feature",
            "properties": {
                "name": "乌龙沟口 Wulonggoukou"
            },
            "geometry": {
                "type": "Point",
                "coordinates": [
                    114.93617534637451,
                    39.48426966631269
                ]
            }
        },
        {
            "type": "Feature",
            "properties": {
                "name": "煤窑沟口 Meiyaogoukou"
            },
            "geometry": {
                "type": "Point",
                "coordinates": [
                    114.92956638336182,
                    39.46666308045246
                ]
            }
        },
        {
            "type": "Feature",
            "properties": {
                "name": "双陀儿口 Shuangtuo'erkou"
            },
            "geometry": {
                "type": "Point",
                "coordinates": [
                    114.89825963973999,
                    39.46457583320898
                ]
            }
        },
        {
            "type": "Feature",
            "properties": {
                "name": "忙儿沟口 Mang'ergoukou"
            },
            "geometry": {
                "type": "Point",
                "coordinates": [
                    114.89810943603514,
                    39.44197654666014
                ]
            }
        },
        {
            "type": "Feature",
            "properties": {
                "name": "长岭儿口 Changling'erkou"
            },
            "geometry": {
                "type": "Point",
                "coordinates": [
                    114.8747956752777,
                    39.42337302455907
                ]
            }
        },
        {
            "type": "Feature",
            "properties": {
                "name": "长桥儿口 Changqiao'erkou"
            },
            "geometry": {
                "type": "Point",
                "coordinates": [
                    114.86663103103638,
                    39.41854938533008
                ]
            }
        },
        {
            "type": "Feature",
            "properties": {
                "name": "添桥儿口 Tianqiao'erkou"
            },
            "geometry": {
                "type": "Point",
                "coordinates": [
                    114.85377788543701,
                    39.392361644293096
                ]
            }
        },
        {
            "type": "Feature",
            "properties": {
                "name": "羊栏沟口 Yanglan'goukou"
            },
            "geometry": {
                "type": "Point",
                "coordinates": [
                    114.84633207321167,
                    39.382527303949665
                ]
            }
        },
        {
            "type": "Feature",
            "properties": {
                "name": "神峪沟口 Shenyugoukou"
            },
            "geometry": {
                "type": "Point",
                "coordinates": [
                    114.84444379806519,
                    39.380520463922714
                ]
            }
        },
        {
            "type": "Feature",
            "properties": {
                "name": "夹河水口 Jiaheshuikou"
            },
            "geometry": {
                "type": "Point",
                "coordinates": [
                    114.83985185623169,
                    39.38008923456753
                ]
            }
        },
        {
            "type": "Feature",
            "properties": {
                "name": "浮屠峪关 Futuyuguan"
            },
            "geometry": {
                "type": "Point",
                "coordinates": [
                    114.83536720275879,
                    39.36708475963729
                ]
            }
        },
        {
            "type": "Feature",
            "properties": {
                "name": "宁静安口 Ningjing'ankou"
            },
            "geometry": {
                "type": "Point",
                "coordinates": [
                    114.83798503875732,
                    39.324139529391346
                ]
            }
        },
        {
            "type": "Feature",
            "properties": {
                "name": "黄草安口 Huangcao'ankou"
            },
            "geometry": {
                "type": "Point",
                "coordinates": [
                    114.78914737701417,
                    39.27847715957864
                ]
            }
        },
        {
            "type": "Feature",
            "properties": {
                "name": "芦子沟口 Luzigoukou"
            },
            "geometry": {
                "type": "Point",
                "coordinates": [
                    114.78625059127808,
                    39.276500551969185
                ]
            }
        },
        {
            "type": "Feature",
            "properties": {
                "name": "歪嘴岭口 Waizuilingkou"
            },
            "geometry": {
                "type": "Point",
                "coordinates": [
                    114.7755753993988,
                    39.27419997625051
                ]
            }
        },
        {
            "type": "Feature",
            "properties": {
                "name": "西水沟口 Xishuigoukou"
            },
            "geometry": {
                "type": "Point",
                "coordinates": [
                    114.73919391632081,
                    39.270138486715894
                ]
            }
        },
        {
            "type": "Feature",
            "properties": {
                "name": "鹰鸽口 Yinggekou"
            },
            "geometry": {
                "type": "Point",
                "coordinates": [
                    114.72649097442626,
                    39.26585248789201
                ]
            }
        },
        {
            "type": "Feature",
            "properties": {
                "name": "胡孩儿口 Huhai'erkou"
            },
            "geometry": {
                "type": "Point",
                "coordinates": [
                    114.73219871520996,
                    39.25854242784853
                ]
            }
        },
        {
            "type": "Feature",
            "properties": {
                "name": "白石口 Baishikou"
            },
            "geometry": {
                "type": "Point",
                "coordinates": [
                    114.69305992126463,
                    39.265088290025716
                ]
            }
        },
        {
            "type": "Feature",
            "properties": {
                "name": "羊卷子口 Yangjuanzikou"
            },
            "geometry": {
                "type": "Point",
                "coordinates": [
                    114.68211650848389,
                    39.24937054716986
                ]
            }
        },
        {
            "type": "Feature",
            "properties": {
                "name": "插箭岭关 Chajianlingguan"
            },
            "geometry": {
                "type": "Point",
                "coordinates": [
                    114.64134693145752,
                    39.2424576124443
                ]
            }
        },
        {
            "type": "Feature",
            "properties": {
                "name": "倒马关 Daomaguan"
            },
            "geometry": {
                "type": "Point",
                "coordinates": [
                    114.62950229644775,
                    39.08883504806725
                ]
            }
        },
        {
            "type": "Feature",
            "properties": {
                "name": "狼牙口 Langyakou"
            },
            "geometry": {
                "type": "Point",
                "coordinates": [
                    114.37915563583374,
                    39.12443399151676
                ]
            }
        },
        {
            "type": "Feature",
            "properties": {
                "name": "古道口 Gudaokou"
            },
            "geometry": {
                "type": "Point",
                "coordinates": [
                    114.36458587646484,
                    39.09561322027872
                ]
            }
        },
        {
            "type": "Feature",
            "properties": {
                "name": "柴劈岭口 Chaipilingkou"
            },
            "geometry": {
                "type": "Point",
                "coordinates": [
                    114.35369610786437,
                    39.07552661865349
                ]
            }
        },
        {
            "type": "Feature",
            "properties": {
                "name": "六岭儿口 Liuling'erkou"
            },
            "geometry": {
                "type": "Point",
                "coordinates": [
                    114.34824585914612,
                    39.046044258592985
                ]
            }
        },
        {
            "type": "Feature",
            "properties": {
                "name": "老路口 Laolukou"
            },
            "geometry": {
                "type": "Point",
                "coordinates": [
                    114.33085441589354,
                    39.01358193815756
                ]
            }
        },
        {
            "type": "Feature",
            "properties": {
                "name": "征兵石口 Zhengbingshikou"
            },
            "geometry": {
                "type": "Point",
                "coordinates": [
                    114.29690837860107,
                    39.0243849199185
                ]
            }
        },
        {
            "type": "Feature",
            "properties": {
                "name": "夹石窖口 Jiashijiaokou"
            },
            "geometry": {
                "type": "Point",
                "coordinates": [
                    114.28821802139282,
                    39.03918632517711
                ]
            }
        },
        {
            "type": "Feature",
            "properties": {
                "name": "漆林口 Qilinkou"
            },
            "geometry": {
                "type": "Point",
                "coordinates": [
                    114.27321910858154,
                    39.02311798897928
                ]
            }
        },
        {
            "type": "Feature",
            "properties": {
                "name": "铁岭口 Tielingkou"
            },
            "geometry": {
                "type": "Point",
                "coordinates": [
                    114.23873662948608,
                    39.03498624141625
                ]
            }
        },
        {
            "type": "Feature",
            "properties": {
                "name": "城墙崖 Chengqiangya"
            },
            "geometry": {
                "type": "Point",
                "coordinates": [
                    113.55588912963867,
                    38.327046452899545
                ]
            }
        },
        {
            "type": "Feature",
            "properties": {
                "name": "六岭关 Liulingguan"
            },
            "geometry": {
                "type": "Point",
                "coordinates": [
                    113.57017993927002,
                    38.24798837751891
                ]
            }
        },
        {
            "type": "Feature",
            "properties": {
                "name": "十八盘口 Shibapankou"
            },
            "geometry": {
                "type": "Point",
                "coordinates": [
                    113.60189437866211,
                    38.2229763910019
                ]
            }
        }
    ]
}